circuitId,url,circuitName,lat,long,locality,country
bremgarten,https://en.wikipedia.org/wiki/Circuit_Bremgarten,Circuit Bremgarten,46.9589,7.40194,Bern,Switzerland
indianapolis,https://en.wikipedia.org/wiki/Indianapolis_Motor_Speedway,Indianapolis Motor Speedway,39.795,-86.2347,Indianapolis,USA
monaco,https://en.wikipedia.org/wiki/Circuit_de_Monaco,Circuit de Monaco,43.7347,7.42056,Monte-Carlo,Monaco
monza,https://en.wikipedia.org/wiki/Monza_Circuit,Autodromo Nazionale di Monza,45.6156,9.28111,Monza,Italy
reims,https://en.wikipedia.org/wiki/Reims-Gueux,Reims-Gueux,49.2542,3.93083,Reims,France
silverstone,https://en.wikipedia.org/wiki/Silverstone_Circuit,Silverstone Circuit,52.0786,-1.01694,Silverstone,UK
spa,https://en.wikipedia.org/wiki/Circuit_de_Spa-Francorchamps,Circuit de Spa-Francorchamps,50.4372,5.97139,Spa,Belgium
