circuitId,url,circuitName,lat,long,locality,country
aintree,https://en.wikipedia.org/wiki/Aintree_Motor_Racing_Circuit,Aintree,53.4769,-2.94056,Liverpool,UK
avus,https://en.wikipedia.org/wiki/AVUS,AVUS,52.4806,13.2514,Berlin,Germany
indianapolis,https://en.wikipedia.org/wiki/Indianapolis_Motor_Speedway,Indianapolis Motor Speedway,39.795,-86.2347,Indianapolis,USA
monaco,https://en.wikipedia.org/wiki/Circuit_de_Monaco,Circuit de Monaco,43.7347,7.42056,Monte-Carlo,Monaco
monsanto,https://en.wikipedia.org/wiki/Circuito_de_Monsanto,Monsanto Park Circuit,38.7197,-9.20306,Lisbon,Portugal
monza,https://en.wikipedia.org/wiki/Monza_Circuit,Autodromo Nazionale di Monza,45.6156,9.28111,Monza,Italy
reims,https://en.wikipedia.org/wiki/Reims-Gueux,Reims-Gueux,49.2542,3.93083,Reims,France
sebring,https://en.wikipedia.org/wiki/Sebring_International_Raceway,Sebring International Raceway,27.4547,-81.3483,Florida,USA
zandvoort,https://en.wikipedia.org/wiki/Circuit_Zandvoort,Circuit Park Zandvoort,52.3888,4.54092,Zandvoort,Netherlands
