circuitId,url,circuitName,lat,long,locality,country
boavista,https://en.wikipedia.org/wiki/Circuito_da_Boavista,Circuito da Boavista,41.1705,-8.67325,Oporto,Portugal
galvez,https://en.wikipedia.org/wiki/Aut칩dromo_Oscar_y_Juan_G치lvez,Aut칩dromo Juan y Oscar G치lvez,-34.6943,-58.4593,Buenos Aires,Argentina
indianapolis,https://en.wikipedia.org/wiki/Indianapolis_Motor_Speedway,Indianapolis Motor Speedway,39.795,-86.2347,Indianapolis,USA
monaco,https://en.wikipedia.org/wiki/Circuit_de_Monaco,Circuit de Monaco,43.7347,7.42056,Monte-Carlo,Monaco
monza,https://en.wikipedia.org/wiki/Monza_Circuit,Autodromo Nazionale di Monza,45.6156,9.28111,Monza,Italy
reims,https://en.wikipedia.org/wiki/Reims-Gueux,Reims-Gueux,49.2542,3.93083,Reims,France
riverside,https://en.wikipedia.org/wiki/Riverside_International_Raceway,Riverside International Raceway,33.937,-117.273,California,USA
silverstone,https://en.wikipedia.org/wiki/Silverstone_Circuit,Silverstone Circuit,52.0786,-1.01694,Silverstone,UK
spa,https://en.wikipedia.org/wiki/Circuit_de_Spa-Francorchamps,Circuit de Spa-Francorchamps,50.4372,5.97139,Spa,Belgium
zandvoort,https://en.wikipedia.org/wiki/Circuit_Zandvoort,Circuit Park Zandvoort,52.3888,4.54092,Zandvoort,Netherlands
